id,URL,Status,transactionType,transactionSubtype,price,isSubjectToVat,isFurnished,type,subtype,country,region,province,district,locality,postalCode,street,number,box,floor,latitude,longitude,bedroomCount,netHabitableSurface,constructionYear,facadeCount,floorCount,condition,hasLift,kitchen,hasGarden,gardenSurface,hasTerrace,terraceSurface,land,fireplaceExists,hasSwimmingPool,hasAirConditioning,bathroomCount,showerRoomCount,toiletCount,parkingCountIndoor,parkingCountOutdoor,primaryEnergyConsumptionPerSqm,epcScore,heatingType,hasDoubleGlazing,saleType,creationDate,lastModificationDate,bookmarkCount,viewCount
10667786,https://www.immoweb.be/en/classified/10667786,200,FOR_SALE,BUY_REGULAR,229000.0,False,False,HOUSE,HOUSE,Belgium,Wallonie,Hainaut,Charleroi,Fontainel'Evêque Leernes,6142,Rue Caebergs,44,,,50.395174,4.3312503,4.0,248.0,1899.0,3.0,,TO_BE_DONE_UP,False,INSTALLED,,,,,670.0,False,False,,1.0,0.0,2.0,1.0,3.0,367.0,E,GAS,True,,2023-06-29T14:59:13.000+0000,2023-09-21T07:13:09.457+0000,22.0,2952.0
10833942,https://www.immoweb.be/en/classified/10833942,200,FOR_SALE,BUY_REGULAR,349000.0,False,False,APARTMENT,GROUND_FLOOR,Belgium,Brussels,Brussels,Brussels,Woluwe-saint-lambert,1200,Chemin des 2 maisons,61,,0.0,50.8429581,4.4243679,2.0,120.0,2000.0,2.0,5.0,GOOD,True,USA_HYPER_EQUIPPED,True,75.0,True,10.0,,False,False,,1.0,1.0,1.0,,,277.0,F,GAS,True,,2023-09-21T06:34:23.000+0000,2023-09-21T06:39:24.457+0000,,
10833936,https://www.immoweb.be/en/classified/10833936,200,FOR_SALE,BUY_REGULAR,175000.0,False,False,APARTMENT,APARTMENT,Belgium,Wallonie,Liège,Verviers,Verviers,4800,Chaussée de Theux,18,,0.0,50.5813143,5.8658189,2.0,71.0,,2.0,,TO_BE_DONE_UP,True,NOT_INSTALLED,,,True,,,False,False,,1.0,0.0,1.0,1.0,1.0,390.0,E,GAS,True,,2023-09-21T06:33:17.000+0000,2023-09-21T06:33:17.830+0000,,
10833954,https://www.immoweb.be/en/classified/10833954,200,FOR_SALE,BUY_REGULAR,245000.0,False,True,APARTMENT,KOT,Belgium,Flanders,Flemish Brabant,Leuven,Leuven,3000,Kapucijnenvoer,34,0002,0.0,50.8771424,4.6905843,1.0,17.0,,2.0,5.0,AS_NEW,,,,,True,,,False,,,1.0,0.0,,,,,,,,,2023-09-21T06:37:59.000+0000,2023-09-21T06:40:37.227+0000,,
10833928,https://www.immoweb.be/en/classified/10833928,200,FOR_SALE,BUY_REGULAR,89000.0,False,False,APARTMENT,DUPLEX,Belgium,Wallonie,Hainaut,Soignies,Houdeng-Goegnies,7110,,,,0.0,,,3.0,152.0,1900.0,4.0,3.0,TO_RENOVATE,False,NOT_INSTALLED,,,,,,False,False,,1.0,1.0,1.0,1.0,,508.0,F,GAS,True,,2023-09-21T06:32:41.000+0000,2023-09-21T06:32:41.533+0000,,
10833947,https://www.immoweb.be/en/classified/10833947,200,FOR_SALE,BUY_REGULAR,224733.0,False,,APARTMENT,APARTMENT,Belgium,Wallonie,Liège,Liège,Saint-Nicolas,4420,Rue des Ecoles,4,,1.0,50.6417093,5.520907,2.0,67.0,2023.0,2.0,2.0,AS_NEW,True,HYPER_EQUIPPED,,,True,8.0,,False,,,1.0,0.0,1.0,,,,,GAS,True,,2023-09-21T06:37:04.000+0000,2023-09-21T06:37:05.083+0000,,
10833953,https://www.immoweb.be/en/classified/10833953,200,FOR_SALE,BUY_REGULAR,285000.0,False,True,APARTMENT,FLAT_STUDIO,Belgium,Flanders,Flemish Brabant,Leuven,Leuven,3000,Kapucijnenvoer,34,0001,0.0,50.8771424,4.6905843,1.0,35.0,,2.0,5.0,AS_NEW,,,,,True,,,False,,,1.0,0.0,,,,,,,,,2023-09-21T06:37:57.000+0000,2023-09-21T06:40:37.150+0000,,
10833946,https://www.immoweb.be/en/classified/10833946,200,FOR_SALE,BUY_REGULAR,149000.0,False,,APARTMENT,APARTMENT,Belgium,Flanders,East Flanders,Gent,Gent Sint-Amandsberg,9040,Engelstraat,171,,3.0,51.0524575,3.7517001,1.0,46.0,2001.0,2.0,,GOOD,True,USA_INSTALLED,,,,,,False,,,1.0,0.0,1.0,1.0,1.0,180.0,B,GAS,True,,2023-09-21T06:36:40.000+0000,2023-09-21T06:36:40.667+0000,,
10833955,https://www.immoweb.be/en/classified/10833955,200,FOR_SALE,BUY_REGULAR,220000.0,False,True,APARTMENT,KOT,Belgium,Flanders,Flemish Brabant,Leuven,Leuven,3000,Kapucijnenvoer,34,0101,1.0,50.8771424,4.6905843,1.0,14.0,,2.0,5.0,AS_NEW,,,,,,,,False,,,1.0,0.0,,,,,,,,,2023-09-21T06:38:01.000+0000,2023-09-21T06:40:37.540+0000,,
10758928,https://www.immoweb.be/en/classified/10758928,200,FOR_SALE,BUY_REGULAR,649000.0,False,,HOUSE,HOUSE,Belgium,Flanders,East Flanders,Gent,Laethem-Saint-Martin,9830,Brandstraat,75,,,51.0056338,3.6236227,3.0,124.0,1961.0,3.0,,JUST_RENOVATED,False,HYPER_EQUIPPED,True,1.0,,,386.0,False,False,False,1.0,0.0,2.0,1.0,2.0,174.0,B,GAS,True,,2023-08-17T15:58:03.000+0000,2023-09-21T06:58:56.883+0000,31.0,3216.0
10833945,https://www.immoweb.be/en/classified/10833945,200,FOR_SALE,BUY_REGULAR,399000.0,False,False,APARTMENT,APARTMENT,Belgium,Brussels,Brussels,Brussels,Uccle,1180,General mac arthur,39,,1.0,50.8127314,4.3539477,3.0,120.0,1973.0,2.0,5.0,TO_RENOVATE,True,NOT_INSTALLED,,,True,9.0,,False,False,,2.0,1.0,2.0,,1.0,84.0,B,GAS,True,,2023-09-21T06:36:25.000+0000,2023-09-21T06:36:25.850+0000,,
10833957,https://www.immoweb.be/en/classified/10833957,200,FOR_SALE,BUY_REGULAR,235000.0,False,True,APARTMENT,KOT,Belgium,Flanders,Flemish Brabant,Leuven,Leuven,3000,Kapucijnenvoer,34,0103,1.0,50.8771424,4.6905843,1.0,23.0,,2.0,5.0,AS_NEW,,,,,True,,,False,,,1.0,0.0,,,,,,,,,2023-09-21T06:38:05.000+0000,2023-09-21T06:40:37.820+0000,,
10833956,https://www.immoweb.be/en/classified/10833956,200,FOR_SALE,BUY_REGULAR,230000.0,False,True,APARTMENT,KOT,Belgium,Flanders,Flemish Brabant,Leuven,Leuven,3000,Kapucijnenvoer,34,0102,1.0,50.8771424,4.6905843,1.0,16.0,,2.0,5.0,AS_NEW,,,,,True,,,False,,,1.0,0.0,,,,,,,,,2023-09-21T06:38:03.000+0000,2023-09-21T06:40:37.620+0000,,
10630694,https://www.immoweb.be/en/classified/10630694,200,FOR_SALE,BUY_REGULAR,179000.0,False,,APARTMENT,APARTMENT,Belgium,Wallonie,Hainaut,Mouscron,Mouscron,7700,Rue du Télégraphe,8/10,,0.0,50.740903,3.2271089,2.0,,2003.0,,,AS_NEW,False,INSTALLED,True,57.0,True,12.0,,False,,,1.0,0.0,1.0,,,327.0,D,ELECTRIC,True,notarySale,2023-06-13T08:01:37.000+0000,2023-09-21T07:14:45.093+0000,1.0,334.0
10768039,https://www.immoweb.be/en/classified/10768039,200,FOR_SALE,BUY_REGULAR,30000.0,False,,APARTMENT,APARTMENT,Belgium,Brussels,Brussels,Brussels,Watermael-Boitsfort,1170,Rue Des Pêcheries - Visserijstraat,81,,4.0,50.8118072,4.4103875,2.0,,,2.0,7.0,AS_NEW,True,USA_HYPER_EQUIPPED,,,True,15.0,,False,False,False,1.0,0.0,1.0,1.0,,,,GAS,True,,2023-08-22T20:16:23.000+0000,2023-09-21T07:15:37.517+0000,117.0,4157.0
10833960,https://www.immoweb.be/en/classified/10833960,200,FOR_SALE,BUY_REGULAR,235000.0,False,True,APARTMENT,KOT,Belgium,Flanders,Flemish Brabant,Leuven,Leuven,3000,Kapucijnenvoer,34,0203,2.0,50.8771424,4.6905843,1.0,14.0,,2.0,5.0,AS_NEW,,,,,,,,False,,,1.0,0.0,,,,,,,,,2023-09-21T06:38:11.000+0000,2023-09-21T06:40:38.383+0000,,
10704816,https://www.immoweb.be/en/classified/10704816,200,FOR_SALE,BUY_REGULAR,265000.0,False,,HOUSE,HOUSE,Belgium,Wallonie,Namur,Namur,Moignelée,5060,,,,,,,3.0,141.0,,3.0,,JUST_RENOVATED,,INSTALLED,,,,,205.0,False,,,1.0,0.0,2.0,1.0,,298.0,D,GAS,True,,2023-07-18T03:43:12.000+0000,2023-09-21T06:40:50.343+0000,42.0,2052.0
10833959,https://www.immoweb.be/en/classified/10833959,200,FOR_SALE,BUY_REGULAR,220000.0,False,True,APARTMENT,KOT,Belgium,Flanders,Flemish Brabant,Leuven,Leuven,3000,Kapucijnenvoer,34,0202,2.0,50.8771424,4.6905843,1.0,16.0,,2.0,5.0,AS_NEW,,,,,,,,False,,,1.0,0.0,,,,,,,,,2023-09-21T06:38:09.000+0000,2023-09-21T06:40:38.227+0000,,
10833965,https://www.immoweb.be/en/classified/10833965,200,FOR_SALE,BUY_REGULAR,225000.0,False,False,APARTMENT,GROUND_FLOOR,Belgium,Flanders,East Flanders,Aalst,Ninove,9400,Pamelstraat,318,1,0.0,50.839866,4.0355671,2.0,92.0,2007.0,2.0,,AS_NEW,True,USA_HYPER_EQUIPPED,,,True,16.0,,False,,,1.0,0.0,1.0,1.0,1.0,184.0,B,GAS,,,2023-09-21T06:38:26.000+0000,2023-09-21T06:40:29.367+0000,,
10833962,https://www.immoweb.be/en/classified/10833962,200,FOR_SALE,BUY_REGULAR,325000.0,False,,APARTMENT,APARTMENT,Belgium,Flanders,East Flanders,Gent,Destelbergen,9070,Koedreef,34,202,0.0,51.0556233,3.8037897,1.0,72.0,2016.0,2.0,,AS_NEW,True,USA_HYPER_EQUIPPED,,,True,14.0,,False,,,1.0,0.0,2.0,1.0,1.0,92.0,A,GAS,True,,2023-09-21T06:38:17.000+0000,2023-09-21T06:38:17.850+0000,,
10833961,https://www.immoweb.be/en/classified/10833961,200,FOR_SALE,BUY_REGULAR,230000.0,False,True,APARTMENT,KOT,Belgium,Flanders,Flemish Brabant,Leuven,Leuven,3000,Kapucijnenvoer,34,0301,3.0,50.8771424,4.6905843,1.0,17.0,,2.0,5.0,AS_NEW,,,,,,,,False,,,1.0,0.0,,,,,,,,,2023-09-21T06:38:13.000+0000,2023-09-21T06:40:38.590+0000,,
10833958,https://www.immoweb.be/en/classified/10833958,200,FOR_SALE,BUY_REGULAR,220000.0,False,True,APARTMENT,KOT,Belgium,Flanders,Flemish Brabant,Leuven,Leuven,3000,Kapucijnenvoer,34,0201,2.0,50.8771424,4.6905843,1.0,14.0,,2.0,5.0,AS_NEW,,,,,,,,False,,,1.0,0.0,,,,,,,,,2023-09-21T06:38:07.000+0000,2023-09-21T06:40:38.087+0000,,
10833977,https://www.immoweb.be/en/classified/10833977,200,FOR_SALE,BUY_REGULAR,629000.0,False,False,HOUSE,MIXED_USE_BUILDING,Belgium,Flanders,Flemish Brabant,Leuven,Hever,3191,Venstraat,2,,,50.9825244,4.538809,5.0,306.0,1991.0,4.0,,GOOD,False,,,,True,,1600.0,False,,,2.0,0.0,3.0,1.0,5.0,228.0,C,FUELOIL,True,,2023-09-21T06:39:08.000+0000,2023-09-21T06:44:13.137+0000,,
10833986,https://www.immoweb.be/en/classified/10833986,200,FOR_SALE,BUY_REGULAR,399000.0,False,,HOUSE,HOUSE,Belgium,Flanders,Limburg,Maaseik,Hechtel-Eksel,3940,Stationsstraat,64,,,51.1624731,5.4142224,4.0,,1925.0,4.0,,,,SEMI_EQUIPPED,,,True,,7231.0,False,,,1.0,0.0,,,,,,,,,2023-09-21T06:39:31.000+0000,2023-09-21T06:44:22.930+0000,,
10833985,https://www.immoweb.be/en/classified/10833985,200,FOR_SALE,BUY_REGULAR,225000.0,False,,APARTMENT,DUPLEX,Belgium,Flanders,Antwerp,Turnhout,Mol,2400,Ezaartveld,89,102,0.0,51.1797414,5.0940053,2.0,85.0,2007.0,,,AS_NEW,,,,,True,30.0,,False,,,,0.0,,,,101.0,B,,,,2023-09-21T06:39:29.000+0000,2023-09-21T06:44:22.353+0000,,
10833976,https://www.immoweb.be/en/classified/10833976,200,FOR_SALE,BUY_REGULAR,626666.0,True,,HOUSE,HOUSE,Belgium,Flanders,East Flanders,Gent,Oosterzele,9860,Geraardsbergse steenweg,256,,,50.9262223,3.8132872,3.0,191.0,2024.0,3.0,,,,USA_HYPER_EQUIPPED,,,True,,550.0,False,,,1.0,0.0,2.0,1.0,,,,,True,newlyBuilt,2023-09-21T06:38:51.000+0000,2023-09-21T06:44:12.480+0000,,
10833975,https://www.immoweb.be/en/classified/10833975,200,FOR_SALE,BUY_REGULAR,975000.0,False,True,HOUSE,HOUSE,Belgium,Flanders,West Flanders,Ieper,Ieper,8900,Veurnseweg,512,,,50.8832527,2.8239413,6.0,635.0,,4.0,,AS_NEW,,,True,3250.0,True,200.0,3725.0,False,,,3.0,2.0,4.0,2.0,20.0,257.0,C,,,,2023-09-21T06:38:49.000+0000,2023-09-21T06:44:10.730+0000,,
10833982,https://www.immoweb.be/en/classified/10833982,200,FOR_SALE,BUY_REGULAR,335000.0,False,False,HOUSE,HOUSE,Belgium,Flanders,Antwerp,Turnhout,Turnhout,2300,Patersstraat,150,,,51.3281451,4.9498184,3.0,164.0,,2.0,,AS_NEW,,INSTALLED,,,True,,158.0,False,,,1.0,0.0,2.0,,,272.0,C,GAS,True,,2023-09-21T06:39:23.000+0000,2023-09-21T06:44:19.897+0000,,
10833979,https://www.immoweb.be/en/classified/10833979,200,FOR_SALE,BUY_REGULAR,219000.0,False,False,HOUSE,HOUSE,Belgium,Flanders,Flemish Brabant,Leuven,Begijnendijk,3130,Plankenbrug,44,,,51.025626,4.8046316,2.0,118.0,1952.0,4.0,,TO_RENOVATE,,SEMI_EQUIPPED,,,,,1265.0,False,,,1.0,0.0,1.0,1.0,5.0,874.0,F,FUELOIL,True,,2023-09-21T06:39:13.000+0000,2023-09-21T06:44:15.623+0000,,
10833980,https://www.immoweb.be/en/classified/10833980,200,FOR_SALE,BUY_REGULAR,295000.0,False,,HOUSE,HOUSE,Belgium,Flanders,Antwerp,Turnhout,Arendonk,2370,Grotstraat,43,,,51.3268558,5.0770198,3.0,155.0,1960.0,4.0,,TO_BE_DONE_UP,,INSTALLED,True,800.0,True,30.0,1035.0,False,,,1.0,0.0,1.0,1.0,2.0,875.0,F,GAS,True,,2023-09-21T06:39:18.000+0000,2023-09-21T06:44:17.297+0000,,
10833981,https://www.immoweb.be/en/classified/10833981,200,FOR_SALE,BUY_REGULAR,449000.0,False,False,HOUSE,HOUSE,Belgium,Flanders,Antwerp,Turnhout,Beerse,2340,J. B. Bastijnsstraat,3,,,51.320627,4.862638,4.0,230.0,2007.0,3.0,,AS_NEW,,USA_INSTALLED,,,True,,330.0,False,,,1.0,0.0,2.0,1.0,2.0,95.0,A,GAS,True,,2023-09-21T06:39:21.000+0000,2023-09-21T06:44:18.720+0000,,
10833987,https://www.immoweb.be/en/classified/10833987,200,FOR_SALE,BUY_REGULAR,395000.0,False,False,APARTMENT,APARTMENT,Belgium,Brussels,Brussels,Brussels,Uccle,1180,Avenue Château de Walzin,4,,9.0,50.8075157,4.3460487,2.0,90.0,1973.0,4.0,10.0,GOOD,True,HYPER_EQUIPPED,,,True,,,False,False,,1.0,1.0,1.0,1.0,,262.0,E,GAS,True,,2023-09-21T06:39:43.000+0000,2023-09-21T06:44:25.580+0000,,
10833988,https://www.immoweb.be/en/classified/10833988,200,FOR_SALE,BUY_REGULAR,319000.0,False,False,HOUSE,HOUSE,Belgium,Flanders,Flemish Brabant,Halle-Vilvoorde,Halle,1500,Gentil Antheunisstraat,2,,,50.739284,4.2309503,2.0,128.0,1942.0,2.0,,JUST_RENOVATED,False,USA_INSTALLED,,,,,40.0,False,,,1.0,1.0,1.0,,,416.0,E,GAS,True,,2023-09-21T06:39:51.000+0000,2023-09-21T06:44:27.643+0000,,
10833989,https://www.immoweb.be/en/classified/10833989,200,FOR_SALE,BUY_REGULAR,385000.0,False,False,HOUSE,HOUSE,Belgium,Flanders,East Flanders,Aalst,Denderhoutem,9450,Nieuwstraat,108,,,50.8694367,4.0075353,4.0,195.0,1935.0,2.0,,GOOD,,USA_HYPER_EQUIPPED,True,45.0,True,14.0,211.0,False,,,1.0,0.0,2.0,1.0,,322.0,D,GAS,True,,2023-09-21T06:39:54.000+0000,2023-09-21T06:44:28.627+0000,,
10833997,https://www.immoweb.be/en/classified/10833997,200,FOR_SALE,BUY_REGULAR,399000.0,False,,APARTMENT,APARTMENT,Belgium,Wallonie,Liège,Liège,Jupille,4020,,,,0.0,,,4.0,260.0,,2.0,4.0,TO_BE_DONE_UP,,,,,,,,False,,,4.0,0.0,5.0,,,261.0,D,GAS,True,,2023-09-21T06:41:07.000+0000,2023-09-21T06:41:07.527+0000,,
10833990,https://www.immoweb.be/en/classified/10833990,200,FOR_SALE,BUY_REGULAR,1990000.0,False,False,HOUSE,EXCEPTIONAL_PROPERTY,Belgium,Wallonie,Walloon Brabant,Nivelles,Braine-l'Alleud,1420,,,,,,,6.0,600.0,1992.0,4.0,,TO_BE_DONE_UP,True,USA_HYPER_EQUIPPED,,,True,140.0,5000.0,False,True,,6.0,7.0,9.0,2.0,4.0,218.0,C,GAS,True,,2023-09-21T06:40:01.000+0000,2023-09-21T06:43:47.250+0000,,
10833992,https://www.immoweb.be/en/classified/10833992,200,FOR_SALE,BUY_REGULAR,359000.0,False,False,HOUSE,HOUSE,Belgium,Flanders,Antwerp,Mechelen,Bornem,2880,Egied de Jonghestraat,70,,,51.1039608,4.3019796,2.0,120.0,,3.0,,AS_NEW,,HYPER_EQUIPPED,True,250.0,True,57.0,400.0,False,,,1.0,0.0,1.0,1.0,1.0,265.0,C,GAS,True,,2023-09-21T06:40:28.000+0000,2023-09-21T06:40:28.070+0000,,
10833994,https://www.immoweb.be/en/classified/10833994,200,FOR_SALE,BUY_REGULAR,549000.0,False,False,HOUSE,HOUSE,Belgium,Wallonie,Hainaut,Tournai,Néchin,7730,,,,,,,6.0,266.0,2000.0,4.0,,GOOD,False,INSTALLED,True,625.0,True,,1085.0,False,True,,2.0,2.0,,1.0,2.0,196.0,C,GAS,True,,2023-09-21T06:40:36.000+0000,2023-09-21T06:40:36.790+0000,,
10833991,https://www.immoweb.be/en/classified/10833991,200,FOR_SALE,BUY_REGULAR,649000.0,False,,HOUSE,VILLA,Belgium,Wallonie,Walloon Brabant,Nivelles,Rebecq,1430,,,,,,,4.0,272.0,1988.0,4.0,,AS_NEW,,INSTALLED,,,True,,3200.0,False,,,1.0,1.0,2.0,2.0,,188.0,C,FUELOIL,True,,2023-09-21T06:40:19.000+0000,2023-09-21T06:44:29.940+0000,,
10833998,https://www.immoweb.be/en/classified/10833998,200,FOR_SALE,BUY_REGULAR,379000.0,False,,HOUSE,VILLA,Belgium,Wallonie,Hainaut,Soignies,Strépy-bracquegnies,7110,,,,,,,4.0,178.0,2000.0,4.0,,GOOD,,,True,1314.0,True,40.0,1450.0,False,,,1.0,0.0,1.0,1.0,2.0,323.0,D,FUELOIL,True,,2023-09-21T06:41:09.000+0000,2023-09-21T06:41:09.887+0000,,
10834004,https://www.immoweb.be/en/classified/10834004,200,FOR_SALE,BUY_REGULAR,294000.0,False,,APARTMENT,DUPLEX,Belgium,Wallonie,Liège,Liège,Villers-St-Siméon,4453,Rue du Notaire Nihoul,14,6,2.0,50.6661313,5.555037,3.0,130.0,2022.0,4.0,,AS_NEW,True,,,,True,25.0,,False,,,2.0,0.0,2.0,,2.0,,,ELECTRIC,True,,2023-09-21T06:52:25.000+0000,2023-09-21T06:52:25.563+0000,,
10834002,https://www.immoweb.be/en/classified/10834002,200,FOR_SALE,BUY_REGULAR,159000.0,False,False,HOUSE,HOUSE,Belgium,Wallonie,Hainaut,Mouscron,Herseaux,7712,,,,,,,2.0,110.0,,2.0,,GOOD,False,SEMI_EQUIPPED,True,400.0,True,36.0,530.0,False,False,,1.0,1.0,1.0,,,375.0,E,GAS,True,,2023-09-21T06:41:45.000+0000,2023-09-21T06:41:45.970+0000,,
10708441,https://www.immoweb.be/en/classified/10708441,200,FOR_SALE,BUY_REGULAR,225000.0,False,True,APARTMENT,APARTMENT,Belgium,Brussels,Brussels,Brussels,Bruxelles,1000,Rue Des Éperonniers - Spoormakersstraat,16,,2.0,50.8458342,4.3542055,1.0,45.0,1937.0,2.0,3.0,JUST_RENOVATED,False,HYPER_EQUIPPED,,,,,,False,False,False,1.0,0.0,1.0,,,334.0,F,,True,,2023-07-19T16:29:58.000+0000,2023-09-21T07:04:00.937+0000,57.0,2776.0
10834006,https://www.immoweb.be/en/classified/10834006,200,FOR_SALE,BUY_REGULAR,435000.0,False,False,APARTMENT,APARTMENT,Belgium,Brussels,Brussels,Brussels,BRUXELLES,1000,rue de la régence,23,,4.0,50.8394198,4.3551466,2.0,100.0,1873.0,3.0,4.0,GOOD,True,INSTALLED,,,,,,False,False,False,2.0,0.0,1.0,,,248.0,E,,True,,2023-09-21T07:01:00.497+0000,2023-09-21T07:01:00.723+0000,,
10834012,https://www.immoweb.be/en/classified/10834012,200,FOR_SALE,BUY_REGULAR,299000.0,False,False,APARTMENT,APARTMENT,Belgium,Flanders,Antwerp,Antwerp,Oostmalle,2390,Vrijwilligersstraat,5,,3.0,51.2998053,4.7364778,2.0,86.0,2016.0,,3.0,GOOD,True,INSTALLED,,,True,11.0,,False,,,1.0,0.0,1.0,1.0,,130.0,B,GAS,True,,2023-09-21T07:10:55.000+0000,2023-09-21T07:10:55.947+0000,,
10834010,https://www.immoweb.be/en/classified/10834010,200,FOR_SALE,BUY_REGULAR,274113.0,True,,HOUSE,HOUSE,Belgium,Wallonie,Liège,Waremme,Berloz,4257,,,,,,,3.0,120.0,,4.0,,,,,True,,,,2044.0,False,,,,0.0,,,,,,,,newlyBuilt,2023-09-21T07:10:17.000+0000,2023-09-21T07:10:17.020+0000,,
10834017,https://www.immoweb.be/en/classified/10834017,200,FOR_SALE,BUY_REGULAR,407000.0,False,,HOUSE,HOUSE,Belgium,Flanders,West Flanders,Kortrijk,Harelbeke,8530,Tamboerijnstraat,BST LOT 31,,,50.8524033,3.3270966,3.0,185.0,,2.0,,,,,,,,,271.0,True,,,2.0,0.0,,,,,,GAS,True,,2023-09-21T07:16:00.000+0000,2023-09-21T07:16:00.613+0000,,
10834011,https://www.immoweb.be/en/classified/10834011,200,FOR_SALE,BUY_REGULAR,239000.0,False,,APARTMENT,APARTMENT,Belgium,Brussels,Brussels,Brussels,Forest,1190,,,,2.0,,,1.0,60.0,,,,AS_NEW,False,INSTALLED,,,True,1.0,,False,False,False,1.0,0.0,,,,,,GAS,True,,2023-09-21T07:10:40.000+0000,2023-09-21T07:10:42.280+0000,,
10834013,https://www.immoweb.be/en/classified/10834013,200,FOR_SALE,BUY_REGULAR,330000.0,False,,HOUSE,COUNTRY_COTTAGE,Belgium,Wallonie,Hainaut,Mons,Noirchain,7080,Rue De L'abbé Quinet,3,,,50.4006999,3.9314206,3.0,232.0,,2.0,,JUST_RENOVATED,False,INSTALLED,,,,,500.0,True,False,False,1.0,1.0,1.0,,2.0,,D,GAS,True,,2023-09-21T07:13:35.000+0000,2023-09-21T07:13:36.423+0000,,
10834016,https://www.immoweb.be/en/classified/10834016,200,FOR_SALE,BUY_REGULAR,435000.0,False,,HOUSE,HOUSE,Belgium,Flanders,West Flanders,Kortrijk,Harelbeke,8530,Tamboerijnstraat,BST LOT 29,,,50.8523815,3.3269187,3.0,185.0,,3.0,,,,,,,,,289.0,True,,,2.0,0.0,,,,,,GAS,True,,2023-09-21T07:15:58.000+0000,2023-09-21T07:15:58.240+0000,,
10834015,https://www.immoweb.be/en/classified/10834015,200,FOR_SALE,BUY_REGULAR,85000.0,False,,HOUSE,HOUSE,Belgium,Wallonie,Namur,Dinant,Yvoir,5530,Rue D'evrehailles,1,,,50.3249669,4.8789419,0.0,,,2.0,,TO_RENOVATE,False,,,,True,8.0,0.0,False,False,False,,0.0,,,,,,,False,,2023-09-21T07:15:32.000+0000,2023-09-21T07:15:33.110+0000,,
10834019,https://www.immoweb.be/en/classified/10834019,200,FOR_SALE,BUY_REGULAR,427000.0,False,,HOUSE,HOUSE,Belgium,Flanders,West Flanders,Kortrijk,Harelbeke,8530,Tamboerijnstraat,BST LOT 30,,,50.8517657,3.3273012,3.0,185.0,,2.0,,,,,,,,,267.0,True,,,2.0,0.0,,,,,,GAS,True,,2023-09-21T07:16:02.000+0000,2023-09-21T07:16:02.817+0000,,
10834018,https://www.immoweb.be/en/classified/10834018,200,FOR_SALE,BUY_REGULAR,425000.0,False,,HOUSE,MANSION,Belgium,Flanders,Antwerp,Antwerp,Antwerpen,2018,,,,,,,3.0,134.0,,2.0,,GOOD,False,INSTALLED,,,True,14.0,0.0,False,False,False,1.0,1.0,,,,280.0,C,GAS,True,,2023-09-21T07:16:00.000+0000,2023-09-21T07:16:01.583+0000,,
10661244,https://www.immoweb.be/en/classified/10661244,200,FOR_SALE,BUY_REGULAR,330000.0,False,,HOUSE,HOUSE,Belgium,Flanders,Antwerp,Antwerp,Schoten,2900,Jozef Hendrickxstraat,157,,,51.248666,4.4875872,4.0,176.0,1951.0,2.0,,,,,,,,,157.0,False,,,2.0,0.0,,,,243.0,C,GAS,True,,2023-06-27T06:53:16.000+0000,2023-09-21T06:40:06.953+0000,25.0,2689.0
10833907,https://www.immoweb.be/en/classified/10833907,200,FOR_SALE,BUY_REGULAR,130000.0,False,False,APARTMENT,APARTMENT,Belgium,Wallonie,Liège,Liège,Herstal,4040,,,,1.0,,,1.0,51.0,,,,,False,SEMI_EQUIPPED,,,,,,False,False,,1.0,0.0,1.0,,,,,,True,,2023-09-21T06:30:00.000+0000,2023-09-21T06:33:54.743+0000,,
10834029,https://www.immoweb.be/en/classified/10834029,200,FOR_SALE,BUY_REGULAR,368000.0,False,,HOUSE,HOUSE,Belgium,Flanders,West Flanders,Kortrijk,Harelbeke,8530,Fagotstraat,BST 52,,,50.8525227,3.3280123,3.0,190.0,,2.0,,GOOD,,INSTALLED,,,True,,0.0,True,,,1.0,0.0,,,,,,GAS,True,,2023-09-21T07:17:26.000+0000,2023-09-21T07:17:26.260+0000,,
10418173,https://www.immoweb.be/en/classified/10418173,200,FOR_SALE,BUY_REGULAR,660000.0,False,False,APARTMENT,GROUND_FLOOR,Belgium,Brussels,Brussels,Brussels,Uccle,1180,Avenue Ptolémée,12,,0.0,50.8035499,4.3691201,3.0,155.0,1962.0,4.0,6.0,GOOD,True,HYPER_EQUIPPED,True,810.0,True,20.0,,False,False,,2.0,1.0,2.0,1.0,1.0,427.0,G,GAS,True,,2023-03-02T04:56:52.000+0000,2023-09-21T06:39:39.743+0000,25.0,1852.0
10834022,https://www.immoweb.be/en/classified/10834022,200,FOR_SALE,BUY_REGULAR,,True,,HOUSE_GROUP,HOUSE_GROUP,Belgium,Flanders,West Flanders,Kortrijk,Harelbeke,8530,,,,,,,,,,,,,,,,,,,,False,,,,,,,,,,,,newlyBuilt,2023-09-21T07:16:13.000+0000,2023-09-21T07:16:14.027+0000,,
10834021,https://www.immoweb.be/en/classified/10834021,200,FOR_SALE,BUY_REGULAR,397000.0,False,,HOUSE,HOUSE,Belgium,Flanders,West Flanders,Kortrijk,Harelbeke,8530,Tamboerijnstraat,BST 17,,,50.8519902,3.3259689,3.0,185.0,,3.0,,,,,,,,,300.0,True,,,2.0,0.0,,,,,,GAS,True,,2023-09-21T07:16:07.000+0000,2023-09-21T07:16:07.037+0000,,
10834030,https://www.immoweb.be/en/classified/10834030,200,FOR_SALE,BUY_REGULAR,,True,,APARTMENT_GROUP,APARTMENT_GROUP,Belgium,Flanders,West Flanders,Kortrijk,VICHTE,8570,,,,,,,,,,,,,,,,,,,,False,,,,,,,,,,,,newlyBuilt,2023-09-21T07:17:28.000+0000,2023-09-21T07:17:28.463+0000,,
